{
  "doctors": [
    {"name": "أحمد محمد", "full_name": "دكتور أحمد محمد", "specialty": "أسنان", "days": ["السبت", "الإثنين", "الأربعاء"], "from": "5:00 م", "to": "10:00 م", "phone": "01012345678", "location": "مدينة نصر"},
    {"name": "سارة علي", "full_name": "دكتورة سارة علي", "specialty": "جلدية وتجميل", "days": ["الأحد", "الثلاثاء", "الخميس"], "from": "4:00 م", "to": "9:00 م", "phone": "01198765432", "location": "التجمع الخامس"},
    {"name": "محمد خالد", "full_name": "دكتور محمد خالد", "specialty": "عظام", "days": ["السبت", "الأربعاء"], "from": "6:00 م", "to": "10:00 م", "phone": "01234567890", "location": "مدينة نصر"},
    {"name": "منى أحمد", "full_name": "دكتورة منى أحمد", "specialty": "نساء وتوليد", "days": ["الأحد", "الثلاثاء", "الخميس"], "from": "5:00 م", "to": "9:00 م", "phone": "01551234567", "location": "التجمع الخامس"},
    {"name": "علي حسن", "full_name": "دكتور علي حسن", "specialty": "أطفال", "days": ["السبت", "الإثنين", "الأربعاء"], "from": "4:00 م", "to": "9:00 م", "phone": "01099887766", "location": "مدينة نصر"},
    {"name": "ريم سامي", "full_name": "دكتورة ريم سامي", "specialty": "أنف وأذن وحنجرة", "days": ["الأحد", "الثلاثاء"], "from": "6:00 م", "to": "10:00 م", "phone": "01122334455", "location": "التجمع الخامس"},
    {"name": "كريم مصطفى", "full_name": "دكتور كريم مصطفى", "specialty": "مخ وأعصاب", "days": ["الإثنين", "الأربعاء"], "from": "7:00 م", "to": "10:00 م", "phone": "01277665544", "location": "مدينة نصر"},
    {"name": "لمى خالد", "full_name": "دكتورة لمى خالد", "specialty": "باطنة وسكر", "days": ["السبت", "الثلاثاء", "الخميس"], "from": "5:30 م", "to": "9:30 م", "phone": "01055443322", "location": "التجمع الخامس"},
    {"name": "عمرو ياسر", "full_name": "دكتور عمرو ياسر", "specialty": "جراحة عامة وليزر دوالي", "days": ["الأحد", "الأربعاء"], "from": "6:00 م", "to": "10:00 م", "phone": "01554332211", "location": "مدينة نصر"},
    {"name": "نورا إبراهيم", "full_name": "دكتورة نورا إبراهيم", "specialty": "تغذية علاجية ونحافة", "days": ["السبت", "الإثنين", "الخميس"], "from": "4:00 م", "to": "8:00 م", "phone": "01111222333", "location": "التجمع الخامس"}
  ]
}
